{
  "SGW": [
    {
      "name": "Hall Building",
      "code": "H",
      "address": "1455 De Maisonneuve Blvd W, Montreal, QC",
      "latitude": 45.49727,
      "longitude": -73.57896,
      "link": "https://www.concordia.ca/maps/buildings/h.html"
    },
    {
      "name": "McConnell Building",
      "code": "JW",
      "address": "1400 De Maisonneuve Blvd W, Montreal, QC",
      "latitude": 45.49676,
      "longitude": -73.57788,
      "link": "https://www.concordia.ca/maps/buildings/jw.html"
    },
    {
      "name": "Visual Arts Building",
      "code": "VA",
      "address": "1395 René-Lévesque Blvd W, Montreal, QC",
      "latitude": 45.49578,
      "longitude": -73.57377,
      "link": "https://www.concordia.ca/maps/buildings/va.html"
    },
    {
      "name": "Engineering & Visual Arts",
      "code": "EV",
      "address": "1515 Ste-Catherine St W, Montreal, QC",
      "latitude": 45.49559,
      "longitude": -73.57818,
      "link": "https://www.concordia.ca/maps/buildings/ev.html"
    },
    {
      "name": "Grey Nuns Building",
      "code": "GN",
      "address": "1190 Guy St, Montreal, QC",
      "latitude": 45.49354,
      "longitude": -73.57684,
      "link": "https://www.concordia.ca/maps/buildings/gn.html"
    },
    {
      "name": "Faubourg Building",
      "code": "FG",
      "address": "1250 Guy St, Montreal, QC",
      "latitude": 45.49425,
      "longitude": -73.57825,
      "link": "https://www.concordia.ca/maps/buildings/fg.html"
    },
    {
      "name": "CL Annex Building",
      "code": "CL",
      "address": "1665 Ste-Catherine St W, Montreal, QC",
      "latitude": 45.49419,
      "longitude": -73.57931,
      "link": "https://www.concordia.ca/maps/buildings/cl.html"
    },
    {
      "name": "Toronto-Dominion Building",
      "code": "TD",
      "address": "1616 Ste-Catherine St W, Montreal, QC",
      "latitude": 45.49487,
      "longitude": -73.57849,
      "link": "https://www.concordia.ca/maps/buildings/td.html"
    },
    {
      "name": "John Molson Building",
      "code": "MB",
      "address": "1450 Guy St, Montreal, QC",
      "latitude": 45.49531,
      "longitude": -73.57902,
      "link": "https://www.concordia.ca/maps/buildings/mb.html"
    },
    {
      "name": "Guy-De Maisonneuve Building",
      "code": "GM",
      "address": "1550 De Maisonneuve Blvd W, Montreal, QC",
      "latitude": 45.49587,
      "longitude": -73.57881,
      "link": "https://www.concordia.ca/maps/buildings/gm.html"
    },
    {
      "name": "Learning Square Building",
      "code": "LS",
      "address": "1535 De Maisonneuve Blvd W, Montreal, QC",
      "latitude": 45.49635,
      "longitude": -73.57951,
      "link": "https://www.concordia.ca/maps/buildings/ls.html"
    },
    {
      "name": "ER Building",
      "code": "ER",
      "address": "2155 Guy St, Montreal, QC",
      "latitude": 45.49640,
      "longitude": -73.58005,
      "link": "https://www.concordia.ca/maps/buildings/er.html"
    },
    {
      "name": "GS Building",
      "code": "GS",
      "address": "1538 Sherbrooke St W, Montreal, QC",
      "latitude": 45.49658,
      "longitude": -73.58112,
      "link": "https://www.concordia.ca/maps/buildings/gs.html"
    },
    {
      "name": "Samuel Bronfman Building",
      "code": "SB",
      "address": "1590 Docteur Penfield Ave, Montreal, QC",
      "latitude": 45.49655,
      "longitude": -73.58604,
      "link": "https://www.concordia.ca/maps/buildings/sb.html"
    },
    {
      "name": "Q Annex",
      "code": "Q",
      "address": "2010 Mackay St, Montreal, QC",
      "latitude": 45.49661,
      "longitude": -73.57910,
      "link": "https://www.concordia.ca/maps/buildings/q.html"
    },
    {
      "name": "P Annex",
      "code": "P",
      "address": "2020 Mackay St, Montreal, QC",
      "latitude": 45.49665,
      "longitude": -73.57917,
      "link": "https://www.concordia.ca/maps/buildings/p.html"
    },
    {
      "name": "T Annex",
      "code": "T",
      "address": "2030 Mackay St, Montreal, QC",
      "latitude": 45.49669,
      "longitude": -73.57928,
      "link": "https://www.concordia.ca/maps/buildings/t.html"
    },
    {
      "name": "RR Annex",
      "code": "RR",
      "address": "2040 Mackay St, Montreal, QC",
      "latitude": 45.49671,
      "longitude": -73.57937,
      "link": "https://www.concordia.ca/maps/buildings/rr.html"
    },
    {
      "name": "R Annex",
      "code": "R",
      "address": "2050 Mackay St, Montreal, QC",
      "latitude": 45.49675,
      "longitude": -73.57943,
      "link": "https://www.concordia.ca/maps/buildings/r.html"
    },
    {
      "name": "FA Annex",
      "code": "FA",
      "address": "2060 Mackay St, Montreal, QC",
      "latitude": 45.49677,
      "longitude": -73.57948,
      "link": "https://www.concordia.ca/maps/buildings/fa.html"
    },
    {
      "name": "EN Annex",
      "code": "EN",
      "address": "2070 Mackay St, Montreal, QC",
      "latitude": 45.49680,
      "longitude": -73.57963,
      "link": "https://www.concordia.ca/maps/buildings/en.html"
    },
    {
      "name": "X Annex",
      "code": "X",
      "address": "2080 Mackay St, Montreal, QC",
      "latitude": 45.49688,
      "longitude": -73.57967,
      "link": "https://www.concordia.ca/maps/buildings/x.html"
    },
    {
      "name": "Z Annex",
      "code": "Z",
      "address": "2090 Mackay St, Montreal, QC",
      "latitude": 45.49692,
      "longitude": -73.57975,
      "link": "https://www.concordia.ca/maps/buildings/z.html"
    },
    {
      "name": "PR Annex",
      "code": "PR",
      "address": "2100 Mackay St, Montreal, QC",
      "latitude": 45.49701,
      "longitude": -73.57991,
      "link": "https://www.concordia.ca/maps/buildings/pr.html"
    },
    {
      "name": "V Annex",
      "code": "V",
      "address": "2110 Mackay St, Montreal, QC",
      "latitude": 45.49703,
      "longitude": -73.57995,
      "link": "https://www.concordia.ca/maps/buildings/v.html"
    },
    {
      "name": "M Annex",
      "code": "M",
      "address": "2135 Mackay St, Montreal, QC",
      "latitude": 45.49761,
      "longitude": -73.58002,
      "link": "https://www.concordia.ca/maps/buildings/m.html"
    },
    {
      "name": "S Annex",
      "code": "S",
      "address": "2145 Mackay St, Montreal, QC",
      "latitude": 45.49767,
      "longitude": -73.58017,
      "link": "https://www.concordia.ca/maps/buildings/s.html"
    },
    {
      "name": "CI Annex",
      "code": "CI",
      "address": "2149 Mackay St, Montreal, QC",
      "latitude": 45.49771,
      "longitude": -73.58029,
      "link": "https://www.concordia.ca/maps/buildings/ci.html"
    },
    {
      "name": "MI Annex",
      "code": "MI",
      "address": "2130 Bishop St, Montreal, QC",
      "latitude": 45.49772,
      "longitude": -73.57929,
      "link": "https://www.concordia.ca/maps/buildings/mi.html"
    },
    {
      "name": "D Annex",
      "code": "D",
      "address": "2140 Bishop St, Montreal, QC",
      "latitude": 45.49778,
      "longitude": -73.57932,
      "link": "https://www.concordia.ca/maps/buildings/d.html"
    },
    {
      "name": "B Annex",
      "code": "B",
      "address": "2160 Bishop St, Montreal, QC",
      "latitude": 45.49781,
      "longitude": -73.57950,
      "link": "https://www.concordia.ca/maps/buildings/b.html"
    },
    {
      "name": "K Annex",
      "code": "K",
      "address": "2150 Bishop St, Montreal, QC",
      "latitude": 45.49782,
      "longitude": -73.57953,
      "link": "https://www.concordia.ca/maps/buildings/k.html"
    },
    {
      "name": "MU Annex",
      "code": "MU",
      "address": "2170 Bishop St, Montreal, QC",
      "latitude": 45.49786,
      "longitude": -73.57960,
      "link": "https://www.concordia.ca/maps/buildings/mu.html"
    }
  ],
  "Loyola": [
    {
      "name": "Administration Building",
      "code": "AD",
      "address": "7141 Sherbrooke St W, Montreal, QC",
      "latitude": 45.45809,
      "longitude": -73.63979,
      "link": "https://www.concordia.ca/maps/buildings/ad.html"
    },
    {
      "name": "BB Annex",
      "code": "BB",
      "address": "3502 Av. Belmore, Montreal, QC",
      "latitude": 45.45976,
      "longitude": -73.63917,
      "link": "https://www.concordia.ca/maps/buildings/bb.html"
    },
    {
      "name": "BH Annex",
      "code": "BH",
      "address": "3500 Av. Belmore, Montreal, QC",
      "latitude": 45.45972,
      "longitude": -73.63909,
      "link": "https://www.concordia.ca/maps/buildings/bh.html"
    },
    {
      "name": "Central Building",
      "code": "CC",
      "address": "7141 Sherbrooke St. W., Montreal, QC",
      "latitude": 45.45830,
      "longitude": -73.64035,
      "link": "https://www.concordia.ca/maps/buildings/cc.html"
    },
    {
      "name": "Communication Studies and Journalism Building",
      "code": "CJ",
      "address": "7141 Sherbrooke St. W., Montreal, QC",
      "latitude": 45.45742,
      "longitude": -73.64021,
      "link": "https://www.concordia.ca/maps/buildings/cj.html"
    },
    {
      "name": "Stinger Dome (seasonal)",
      "code": "DO",
      "address": "7141 Sherbrooke St. W., Montreal, QC",
      "latitude": 45.45766,
      "longitude": -73.63616,
      "link": "https://www.concordia.ca/maps/buildings/do.html"
    },
    {
      "name": "F.C. Smith Building",
      "code": "FC",
      "address": "7141 Sherbrooke St. W., Montreal, QC",
      "latitude": 45.45858,
      "longitude": -73.63933,
      "link": "https://www.concordia.ca/maps/buildings/fc.html"
    },
    {
      "name": "Centre for Structural and Functional Genomics",
      "code": "GE",
      "address": "7141 Sherbrooke St. W., Montreal, QC",
      "latitude": 45.45699,
      "longitude": -73.64045,
      "link": "https://www.concordia.ca/maps/buildings/ge.html"
    },
    {
      "name": "Hingston Hall, wing HA",
      "code": "HA",
      "address": "7141 Sherbrooke St. W., Montreal, QC",
      "latitude": 45.4592,
      "longitude": -73.6416,
      "link": "https://www.concordia.ca/maps/buildings/ha.html"
    },
    {
      "name": "Hingston Hall, wing HB",
      "code": "HB",
      "address": "7141 Sherbrooke St. W., Montreal, QC",
      "latitude": 45.45925,
      "longitude": -73.64191,
      "link": "https://www.concordia.ca/maps/buildings/hb.html"
    },
    {
      "name": "Hingston Hall, wing HC",
      "code": "HC",
      "address": "7141 Sherbrooke St. W., Montreal, QC",
      "latitude": 45.45972,
      "longitude": -73.64203,
      "link": "https://www.concordia.ca/maps/buildings/hc.html"
    },
    {
      "name": "Applied Science Hub",
      "code": "HU",
      "address": "7141 Sherbrooke St. W., Montreal, QC",
      "latitude": 45.45851,
      "longitude": -73.64181,
      "link": "https://www.concordia.ca/maps/buildings/hu.html"
    },
    {
      "name": "Jesuit Residence",
      "code": "JR",
      "address": "7141 Sherbrooke St. W., Montreal, QC",
      "latitude": 45.45852,
      "longitude": -73.64323,
      "link": "https://www.concordia.ca/maps/buildings/jr.html"
    },
    {
      "name": "PERFORM Centre",
      "code": "PC",
      "address": "7200 Sherbrooke St. W., Montreal, QC",
      "latitude": 45.45698,
      "longitude": -73.63731,
      "link": "https://www.concordia.ca/maps/buildings/pc.html"
    },
    {
      "name": "Physical Services Building",
      "code": "PS",
      "address": "7141 Sherbrooke St. W., Montreal, QC",
      "latitude": 45.45969,
      "longitude": -73.63981,
      "link": "https://www.concordia.ca/maps/buildings/ps.html"
    },
    {
      "name": "Oscar Peterson Concert Hall",
      "code": "PT",
      "address": "7141 Sherbrooke St. W., Montreal, QC",
      "latitude": 45.45932,
      "longitude": -73.63896,
      "link": "https://www.concordia.ca/maps/buildings/pt.html"
    },
    {
      "name": "Psychology Building",
      "code": "PY",
      "address": "7141 Sherbrooke St. W., Montreal, QC",
      "latitude": 45.45893,
      "longitude": -73.64049,
      "link": "https://www.concordia.ca/maps/buildings/py.html"
    },
    {
      "name": "Quadrangle",
      "code": "QA",
      "address": "7141 Sherbrooke St. W., Montreal, QC",
      "latitude": 45.45875,
      "longitude": -73.64002,
      "link": "https://www.concordia.ca/maps/buildings/qa.html"
    },
    {
      "name": "Recreation and Athletics Complex",
      "code": "RA",
      "address": "7200 Sherbrooke St. W., Montreal, QC",
      "latitude": 45.45669,
      "longitude": -73.63768,
      "link": "https://www.concordia.ca/maps/buildings/ra.html"
    },
    {
      "name": "Loyola Jesuit Hall and Conference Centre",
      "code": "RF",
      "address": "7141 Sherbrooke St. W., Montreal, QC",
      "latitude": 45.45858,
      "longitude": -73.64103,
      "link": "https://www.concordia.ca/maps/buildings/rf.html"
    },
    {
      "name": "Student Center",
      "code": "SC",
      "address": "7141 Sherbrooke St. W., Montreal, QC",
      "latitude": 45.45915,
      "longitude": -73.63922,
      "link": "https://www.concordia.ca/maps/buildings/sc.html"
    },
    {
      "name": "Future Buildings Laboratory",
      "code": "SH",
      "address": "7141 Sherbrooke St. W., Montreal, QC",
      "latitude": 45.45928,
      "longitude": -73.64253,
      "link": "https://www.concordia.ca/maps/buildings/sh.html"
    },
    {
      "name": "St. Ignatius of Loyola Church",
      "code": "SI",
      "address": "4455 Broadway St., Montreal, QC",
      "latitude": 45.45784,
      "longitude": -73.64239,
      "link": "https://www.concordia.ca/maps/buildings/si.html"
    },
    {
      "name": "Richard J. Renaud Science Complex",
      "code": "SP",
      "address": "7141 Sherbrooke St. W., Montreal, QC",
      "latitude": 45.45782,
      "longitude": -73.64154,
      "link": "https://www.concordia.ca/maps/buildings/sp.html"
    },
    {
      "name": "Terrebonne Building",
      "code": "TA",
      "address": "7079 Terrebonne St., Montreal, QC",
      "latitude": 45.46000,
      "longitude": -73.64085,
      "link": "https://www.concordia.ca/maps/buildings/ta.html"
    },
    {
      "name": "Vanier Extension",
      "code": "VE",
      "address": "7141 Sherbrooke St. W., Montreal, QC",
      "latitude": 45.45884,
      "longitude": -73.63865,
      "link": "https://www.concordia.ca/maps/buildings/ve.html"
    },
    {
      "name": "Vanier Library Building",
      "code": "VL",
      "address": "7141 Sherbrooke St. W., Montreal, QC",
      "latitude": 45.45905,
      "longitude": -73.63843,
      "link": "https://www.concordia.ca/maps/buildings/vl.html"
    }
  ]
}
